[{"Name":"Alan Dibs","Deal":"10% off one item per visit with Brag Card","Exception":"","Latitude":35.622841,"Longitude":-97.506997,"Address":"15020 Bristol Park Place, Edmond, OK 73013","Phone":"405-753-4466","Email":"anne@1stdibsedmond.com","Website":"http://www.1stdibsedmond.com"},
{"Name":"42nd Street Candy","Deal":"10% off in store purchase","Exception":"","Latitude":35.513697,"Longitude":-97.529821,"Address":"4200 N Western Ave # A,Oklahoma City, OK 73118","Phone":"405-521-8337","Email":"chocolateistheanswer@msn.com","Website":""},
{"Name":"Anabelle’s Galleria","Deal":"20% off one regular priced item with Brag Card ","Exception":"excludes waxing poetic","Latitude":35.653011,"Longitude":-97.53335,"Address":"1201 NW 178th Suite 112,Edmond, OK  73012","Phone":"405-359-1189","Email":" ","Website":""},
{"Name":"Art and Soul Photography, By Angel Porch","Deal":"2 free digital files with Brag Card ($50 value)","Exception":"","Latitude":null,"Longitude":null,"Address":"null","Phone":"405-401-3714","Email":"","Website":"http://www.angelporchphotography.com"},
{"Name":"Artsy Phartsy Photography","Deal":"10% off with Brag Card","Exception":"","Latitude":null,"Longitude":null,"Address":"null","Phone":"405-488-4719","Email":"erinkanske@cox.net","Website":""},
{"Name":"Bella Blu Maternity","Deal":"10% off storewide with Brag Card","Exception":"","Latitude":35.65276,"Longitude":-97.465659,"Address":"323 S. Blackwelder Ave.,Edmond, OK  73034","Phone":"405-285-9003","Email":" ","Website":"http://www.bellablumaternity.com"},
{"Name":"Blessings and Blooms","Deal":"15% off one regular priced item with Brag Card","Exception":"excludes furniture","Latitude":35.507908,"Longitude":-97.749342,"Address":"419 W. Main,Yukon, OK","Phone":"405-577-6790","Email":" ","Website":"http://www.blessingsnblooms.com"},
{"Name":"Blush (Campus Corner)","Deal":"15% off one regular priced item with Brag Card","Exception":"","Latitude":35.211803,"Longitude":-97.444643,"Address":"566 Buchanan Ave. Suite E,Norman, OK  73069","Phone":"405-701-8600","Email":" ","Website":"http://www.blushnorman.com"},
{"Name":"Brock's Photography","Deal":"$65 off any 16x20 or larger fine linen prints with Brag Card","Exception":"","Latitude":null,"Longitude":null,"Address":"null","Phone":"405-863-7705","Email":"","Website":"http://www.brocksphotography.com"},
{"Name":"Candence Yoga","Deal":"Buy one class get one free","Exception":"","Latitude":35.475226,"Longitude":-97.519303,"Address":"801 N. Hudson,Oklahoma City, OK 73102","Phone":"405-601-8537","Email":"mandy@cadenceyoga.com","Website":"http://www.cadenceyoga.com"},
{"Name":"Closet Moxie","Deal":"10% off entire purchase with Brag Card","Exception":"","Latitude":35.591897,"Longitude":-97.567181,"Address":"12036 N. May Ave. (Northpark Mall),Oklahoma City, OK 73120","Phone":"405-286-3760","Email":" ","Website":"http://www.closetmoxie.com"},
{"Name":"Courtyard Antiques","Deal":"10% off with Brag Card","Exception":"","Latitude":35.622394,"Longitude":-97.487149,"Address":"3314 S. Broadway,Edmond, OK 73013","Phone":"405-359-2719","Email":" ","Website":"http://www.courtyardantiquemarket.com"},
{"Name":"The Culinary Kitchen","Deal":"20% off one regular priced piece of Fotunata Italian Dishware with Brag Card","Exception":"","Latitude":35.545625,"Longitude":-97.529761,"Address":"7302 N. Western Ave. ,Oklahoma City, OK  73116","Phone":"405-418-4884","Email":" culinarykitchenokc@yahoo. Com","Website":""},
{"Name":"Designer Rugs","Deal":"20% off one regular priced Jonathan Adler Pillow with Brag Card","Exception":"","Latitude":35.543415,"Longitude":-97.529767,"Address":"7118 N. Western Ave.,Oklahoma City, OK  73116","Phone":"405-842-9000","Email":"info@designerrugsokc.com","Website":""},
{"Name":"Designer 's Brew","Deal":"20% off custom order rugs with Brag Card, 15% off lamps with Brag Card, 20% off one regular priced item with Brag Card","Exception":"","Latitude":35.650223,"Longitude":-97.496017,"Address":"610 S. Kelly, Ste J, Edmond, OK 73003","Phone":"405-562-8848","Email":"brett@designersbrew.com","Website":"http://www.designersbrew.com"},
{"Name":" Extreme Animals Inc.","Deal":"$10 off with Brag Card","Exception":"","Latitude":35.2862,"Longitude":-97.750516,"Address":"318 Red Rock Rd., Tuttle, OK 73089","Phone":"405-413-3174","Email":"","Website":"http://www.extremeanimals.org"},
{"Name":"Fashion Boutique","Deal":"20% off one regular priced item with Brag Card","Exception":"","Latitude":35.654086,"Longitude":-97.481382,"Address":"104 S. Broadway, Edmond, OK 73034","Phone":"405-330-3357","Email":"","Website":"http://www.fashionboutiqueedmond.com"},
{"Name":"Funky Monkey","Deal":"20% off one regular priced item with Brag Card","Exception":"","Latitude":35.614454,"Longitude":-97.567172,"Address":"14101 N. May Ave., Suite 113,Oklahoma City, OK  73134","Phone":"405-748-7066","Email":" ","Website":"http://www.shopfunkymonkeyclothes.com"},
{"Name":"Holder Brothers Beef","Deal":"Buy 6 steaks and receive a lb. of ground beef for free with Brag Card","Exception":"","Latitude":35.625092,"Longitude":-97.531391,"Address":"15220 N. Western,Edmond, OK","Phone":"405-715-2334","Email":" ","Website":"http://www.holderbrothersbeef.com"},
{"Name":"Jump Zone","Deal":"$2 off admission during open play hours with Brag Card","Exception":"one child per family","Latitude":35.38256,"Longitude":-97.524781,"Address":"Palagio Shopping Center,Oklahoma City, OK  73139","Phone":"405-200-1691","Email":" ","Website":"http://www.jumpzoneparty.com"},
{"Name":"Kamdyn’s Kloset","Deal":"Use your Brag Card online code: BRAG20","Exception":"","Latitude":35.878042,"Longitude":-97.425677,"Address":"124 W. Oklahoma Ave.,Guthrie, OK  73044","Phone":"405-293-9718","Email":" ","Website":"http://www.kamdynskloset.com"},
{"Name":"Kindermusik-OCU Performing Arts Academy","Deal":"Waived registration for new member $20 for individual $30 for family with Brag Card","Exception":"","Latitude":35.494322,"Longitude":-97.538767,"Address":"2501 N. Blackwelder,Oklahoma City, OK  73106","Phone":"405-208-5410","Email":" ","Website":""},
{"Name":"Kristin Cook Photography","Deal":"15% off of print order with Brag Card","Exception":"","Latitude":null,"Longitude":null,"Address":"null","Phone":"405-217-2496","Email":"kcook@kristincookphotography.com","Website":"http://www.kristincookphotography.com"},
{"Name":"KS Design","Deal":"10% off in store purchase with Brag Card ","Exception":"","Latitude":35.51376,"Longitude":-97.529837,"Address":"4209 North Western Ave, Okc, OK 73118","Phone":"405-524-7868","Email":"ksdesign4207@gmail.com","Website":"http://www.ksdesignokc.com"},
{"Name":"Lindsey Brooks Photography","Deal":"10% off your print order with Brag Card","Exception":"","Latitude":35.290932,"Longitude":-97.72452,"Address":"5002 E. Highway 37,Tuttle, OK  73089","Phone":"405-408-8625","Email":" ","Website":"http://www.lindseybrooksphotography.com"},
{"Name":"Loabi","Deal":"15% off one regular priced item ","Exception":"excludes furniture","Latitude":35.507892,"Longitude":-97.749803,"Address":"454 W. Main,Yukon, OK","Phone":"405-494-7447","Email":" ","Website":"http://www.loabiboutique.com"},
{"Name":"Lori Hansen, MD","Deal":" $1500 for DOT co2 laser (regularly $3000) with Brag Card","Exception":"","Latitude":35.606127,"Longitude":-97.602955,"Address":"13313 N. Meridian Suite A-3,Oklahoma City, OK  73120","Phone":"405-753.9600","Email":" ","Website":"http://www.LoriHansenMD.com"},
{"Name":"Marissa’s Room","Deal":"10% off entire purchase with Brag Card","Exception":"","Latitude":35.624309,"Longitude":-97.485771,"Address":"3224 S. Broadway Suite 124,Edmond, OK  73013","Phone":"405-285-7777","Email":" ","Website":"http://www.marissasroom.com"},
{"Name":"Monticello Cabinets & Doors","Deal":"10% off of cabinets and doors with Brag Card","Exception":"","Latitude":35.462178,"Longitude":-97.521396,"Address":"512 SW 3rd, Oklahoma City, OK 73109","Phone":"405-228-4900","Email":"mark@monticellocabinets.com","Website":"http://monticellocabinets.com"},
{"Name":"Morrison Supply Co.","Deal":"Purchase an aquatic tub and receive free shipping with Brag Card","Exception":"","Latitude":35.594555,"Longitude":-97.503067,"Address":"501 NE 122nd Suite C,Oklahoma City, OK  73114","Phone":"405-752-0142","Email":" ","Website":"http://www.morsco.com"},
{"Name":"Occasions Paper","Deal":"20% off of baby memory albums and free printing on notecards with Brag Card","Exception":"","Latitude":35.218467,"Longitude":-97.470457,"Address":"2001 W. Main St., Suite 119,Norman, OK  73069","Phone":"405-217-8467","Email":" ","Website":"http://www.occasionspaper.com"},
{"Name":"Paint Your Art Out","Deal":"$5 off adult painting session with Brag Card","Exception":"","Latitude":35.656445,"Longitude":-97.481066,"Address":"100 N. Broadway, Suite 160,Edmond, OK  73034","Phone":"405-513-5333","Email":"fun@paintyourartout.net","Website":"http://www.paintyourartout.net"},
{"Name":"Pink Swirls","Deal":"10% off event packages held at any pink swirl location with Brag Card, Spend over $1500 for off-site catering and receive free unlimited yogurt with Brag Card","Exception":"","Latitude":35.467859,"Longitude":-97.53392,"Address":"1232 West Main Street, Oklahoma City, OK  73106","Phone":"405-471-7888","Email":"","Website":"http://www.pink-swirls.com"},
{"Name":"Seyoung Kim, DC","Deal":"Free examination and evaluation with Brag Card","Exception":"","Latitude":35.546531,"Longitude":-97.611979,"Address":"5583 NW Expressway,Oklahoma City, OK  73132","Phone":"405-773-3131","Email":"drseyoungkim@att.net","Website":""},
{"Name":"Sterling's Home Décor and Gifts","Deal":"20% off one regular priced item with Brag Card","Exception":"","Latitude":35.654102,"Longitude":-97.481398,"Address":"105 S. Broadway, Edmond, OK 73034","Phone":"405-844-7465","Email":"sterlingsedmond@att.net","Website":"http://www.sterlingshomedecorandgifts.com"},
{"Name":"Storkland & Kids Too","Deal":"$10 off $50 purchase on regular priced merchandise with Brag Card","Exception":"","Latitude":35.541189,"Longitude":-97.565687,"Address":"6917 N. May Ave.,Oklahoma City, OK  73116","Phone":"405-767-1234","Email":" ","Website":"http://www.storkland.com"},
{"Name":"Sugar Cakes (2 locations)","Deal":"Complimentary 2 pack of cupcakes with Brag Card","Exception":"","Latitude":35.220837,"Longitude":-97.44639,"Address":"230 W. Gray St.,Norman, OK  73069","Phone":" ","Email":" ","Website":"http://www.oksugar.com"},
{"Name":"Sugar Cakes (2 locations)","Deal":"Complimentary 2 pack of cupcakes with Brag Card","Exception":"","Latitude":35.54148,"Longitude":-97.529771,"Address":"6900 Western Ave.,Oklahoma City, OK","Phone":"405-701-3598","Email":" ","Website":"http://www.oksugar.com"},
{"Name":"The Tulip Tree","Deal":"20% off one regular priced piece of Fotunata Italian Dishware with Brag Card","Exception":"","Latitude":35.545625,"Longitude":-97.529761,"Address":"7302 N. Western Ave. ,Oklahoma City, OK  73116","Phone":"405-418-4884","Email":" culinarykitchenokc@yahoo. Com","Website":""},
{"Name":"Tulips","Deal":"15% off one regular priced item with Brag Card","Exception":"","Latitude":35.222843,"Longitude":-97.476683,"Address":"360 24th Ave. NW, #100,Norman, OK  73069","Phone":"405-329-1060","Email":" ","Website":"http://www.tuliptree.biz"},
{"Name":"Uniquely U Photography","Deal":"15% off one regular priced item with Brag Card","Exception":"","Latitude":35.211744,"Longitude":-97.444644,"Address":"570 Buchanan Ave.,Norman, OK  73069","Phone":"405-217-9322","Email":" ","Website":"http://www.tulipshome.com"},
{"Name":"Uptown Kids","Deal":"1 free photo sheet with any purchase with Brag Card","Exception":"","Latitude":35.49314,"Longitude":-97.289569,"Address":"13444 NE 23rd St.,Choctaw, OK  73020","Phone":"405-769-9422","Email":" ","Website":"http://www.uniquelyuphotography.com"}]